{
"Employees" : [
{
"name":"Tom Brady",
"location":"FL",
"phoneNumber":"432-123-4567",
"emailAddress":"tombrady@gmail.com"
},
{
"name":"John Wick",
"location":"CA",
"phoneNumber":"408-544-2284",
"emailAddress":"johnwick@gmail.com"
},
{
"name":"Lebron James",
"location":"CA",
"phoneNumber":"408-223-4444",
"emailAddress":"lbj@gmail.com"
},
{
"name":"Tom Hanks",
"location":"IL",
"phoneNumber":"408-123-4567",
"emailAddress":"tomhanks@gmail.com"
},
{
"name":"Dave Payne",
"location":"GA",
"phoneNumber":"755-255-8438",
"emailAddress":"dPayne@gmail.com"
},
{
"name":"Lisa Smith",
"location":"CA",
"phoneNumber":"987-662-4200",
"emailAddress":"lisasmith@gmail.com"
}
{
"name":"Dan Marino",
"location":"FL",
"phoneNumber":"408-123-4567",
"emailAddress":"danmarino@gmail.com"
},
{
"name":"John Abraham",
"location":"TX",
"phoneNumber":"657-777-999",
"emailAddress":"johnabraham@gmail.com"
},
{
"name":"Harun Malik",
"location":"NC",
"phoneNumber":"654-445-3232",
"emailAddress":"harunmalik@gmail.com"
},
{
"name":"Kylian Mbappe",
"location":"France",
"phoneNumber":"845-235-6522",
"emailAddress":"tomhanks@gmail.com"
}
]
}